{"ast":null,"code":"var _jsxFileName = \"/Users/mac/Desktop/GitHub/Diploma-project/project/src/components/Maps.jsx\";\nimport React, { Component } from 'react';\nimport { GoogleMap, LoadScript, Marker, InfoWindow } from '@react-google-maps/api';\nimport { jsxDEV as _jsxDEV } from \"react/jsx-dev-runtime\";\n\nconst MapContainer = () => {\n  const mapStyles = {\n    height: \"100vh\",\n    width: \"100%\"\n  };\n  const defaultCenter = {\n    lat: 41.3851,\n    lng: 2.1734\n  };\n  const locations = [{\n    name: \"Location 1\",\n    location: {\n      lat: 41.3954,\n      lng: 2.162\n    }\n  }, {\n    name: \"Location 2\",\n    location: {\n      lat: 41.3917,\n      lng: 2.1649\n    }\n  }, {\n    name: \"Location 3\",\n    location: {\n      lat: 41.3773,\n      lng: 2.1585\n    }\n  }, {\n    name: \"Location 4\",\n    location: {\n      lat: 41.3797,\n      lng: 2.1682\n    }\n  }, {\n    name: \"Location 5\",\n    location: {\n      lat: 41.4055,\n      lng: 2.1915\n    }\n  }];\n  return /*#__PURE__*/_jsxDEV(LoadScript, {\n    googleMapsApiKey: \"AIzaSyAPgqAVnXgH9OhdUcQWBm-oxiodDZv8moA\",\n    children: /*#__PURE__*/_jsxDEV(GoogleMap, {\n      mapContainerStyle: mapStyles,\n      zoom: 13,\n      center: defaultCenter,\n      children: /*#__PURE__*/_jsxDEV(Marker, {\n        title: 'The marker`s title will appear as a tooltip.',\n        name: 'SOMA',\n        position: {\n          lat: 41.3851,\n          lng: 2.1734\n        }\n      }, void 0, false, {\n        fileName: _jsxFileName,\n        lineNumber: 59,\n        columnNumber: 10\n      }, this)\n    }, void 0, false, {\n      fileName: _jsxFileName,\n      lineNumber: 54,\n      columnNumber: 9\n    }, this)\n  }, void 0, false, {\n    fileName: _jsxFileName,\n    lineNumber: 52,\n    columnNumber: 6\n  }, this);\n};\n\n_c = MapContainer;\nexport default MapContainer; // icon={{ url: require('../../images/marker.png') }}\n\nvar _c;\n\n$RefreshReg$(_c, \"MapContainer\");","map":{"version":3,"sources":["/Users/mac/Desktop/GitHub/Diploma-project/project/src/components/Maps.jsx"],"names":["React","Component","GoogleMap","LoadScript","Marker","InfoWindow","MapContainer","mapStyles","height","width","defaultCenter","lat","lng","locations","name","location"],"mappings":";AAAA,OAAOA,KAAP,IAAeC,SAAf,QAA+B,OAA/B;AACA,SAASC,SAAT,EAAoBC,UAApB,EAAgCC,MAAhC,EAAwCC,UAAxC,QAA0D,wBAA1D;;;AAEA,MAAMC,YAAY,GAAG,MAAM;AAEzB,QAAMC,SAAS,GAAG;AAChBC,IAAAA,MAAM,EAAE,OADQ;AAEhBC,IAAAA,KAAK,EAAE;AAFS,GAAlB;AAIA,QAAMC,aAAa,GAAG;AACpBC,IAAAA,GAAG,EAAE,OADe;AACNC,IAAAA,GAAG,EAAE;AADC,GAAtB;AAGA,QAAMC,SAAS,GAAG,CAChB;AACEC,IAAAA,IAAI,EAAE,YADR;AAEEC,IAAAA,QAAQ,EAAE;AACRJ,MAAAA,GAAG,EAAE,OADG;AAERC,MAAAA,GAAG,EAAE;AAFG;AAFZ,GADgB,EAQhB;AACEE,IAAAA,IAAI,EAAE,YADR;AAEEC,IAAAA,QAAQ,EAAE;AACRJ,MAAAA,GAAG,EAAE,OADG;AAERC,MAAAA,GAAG,EAAE;AAFG;AAFZ,GARgB,EAehB;AACEE,IAAAA,IAAI,EAAE,YADR;AAEEC,IAAAA,QAAQ,EAAE;AACRJ,MAAAA,GAAG,EAAE,OADG;AAERC,MAAAA,GAAG,EAAE;AAFG;AAFZ,GAfgB,EAsBhB;AACEE,IAAAA,IAAI,EAAE,YADR;AAEEC,IAAAA,QAAQ,EAAE;AACRJ,MAAAA,GAAG,EAAE,OADG;AAERC,MAAAA,GAAG,EAAE;AAFG;AAFZ,GAtBgB,EA6BhB;AACEE,IAAAA,IAAI,EAAE,YADR;AAEEC,IAAAA,QAAQ,EAAE;AACRJ,MAAAA,GAAG,EAAE,OADG;AAERC,MAAAA,GAAG,EAAE;AAFG;AAFZ,GA7BgB,CAAlB;AAsCA,sBACG,QAAC,UAAD;AACE,IAAA,gBAAgB,EAAC,yCADnB;AAAA,2BAEG,QAAC,SAAD;AACE,MAAA,iBAAiB,EAAEL,SADrB;AAEE,MAAA,IAAI,EAAE,EAFR;AAGE,MAAA,MAAM,EAAEG,aAHV;AAAA,6BAKC,QAAC,MAAD;AACL,QAAA,KAAK,EAAE,8CADF;AAEL,QAAA,IAAI,EAAE,MAFD;AAGL,QAAA,QAAQ,EAAE;AAACC,UAAAA,GAAG,EAAE,OAAN;AAAeC,UAAAA,GAAG,EAAE;AAApB;AAHL;AAAA;AAAA;AAAA;AAAA;AALD;AAAA;AAAA;AAAA;AAAA;AAFH;AAAA;AAAA;AAAA;AAAA,UADH;AAeD,CA9DD;;KAAMN,Y;AAgEN,eAAeA,YAAf,C,CAEA","sourcesContent":["import React, {Component} from 'react';\nimport { GoogleMap, LoadScript, Marker, InfoWindow } from '@react-google-maps/api';\n\nconst MapContainer = () => {\n  \n  const mapStyles = {        \n    height: \"100vh\",\n    width: \"100%\"};\n  \n  const defaultCenter = {\n    lat: 41.3851, lng: 2.1734\n  }\n  const locations = [\n    {\n      name: \"Location 1\",\n      location: { \n        lat: 41.3954,\n        lng: 2.162 \n      },\n    },\n    {\n      name: \"Location 2\",\n      location: { \n        lat: 41.3917,\n        lng: 2.1649\n      },\n    },\n    {\n      name: \"Location 3\",\n      location: { \n        lat: 41.3773,\n        lng: 2.1585\n      },\n    },\n    {\n      name: \"Location 4\",\n      location: { \n        lat: 41.3797,\n        lng: 2.1682\n      },\n    },\n    {\n      name: \"Location 5\",\n      location: { \n        lat: 41.4055,\n        lng: 2.1915\n      },\n    }\n  ];\n\n  return (\n     <LoadScript\n       googleMapsApiKey='AIzaSyAPgqAVnXgH9OhdUcQWBm-oxiodDZv8moA'>\n        <GoogleMap\n          mapContainerStyle={mapStyles}\n          zoom={13}\n          center={defaultCenter}>\n         \n         <Marker\n    title={'The marker`s title will appear as a tooltip.'}\n    name={'SOMA'}\n    position={{lat: 41.3851, lng: 2.1734}} />\n     </GoogleMap>\n     </LoadScript>\n  )\n}\n\nexport default MapContainer;\n\n// icon={{ url: require('../../images/marker.png') }}\n\n\n"]},"metadata":{},"sourceType":"module"}